City,Country,Cloudiness,Date,Humidity,Latitude,Longitude,Max Temp,Wind Speed
Alto araguaia,BR,14,1564233790,50,-17.32,-53.22,71.33,5.82
Port lincoln,AU,95,1564233790,67,-34.72,135.86,55.31,4.23
Puerto ayora,EC,75,1564233790,94,-0.74,-90.35,68.0,9.17
Atuona,PF,0,1564233790,78,-9.8,-139.03,79.97,20.65
Shingu,JP,100,1564233791,96,33.72,135.99,69.17,3.33
Roald,NO,0,1564233791,61,62.58,6.12,86.0,9.17
Okhotsk,RU,98,1564233791,91,59.36,143.24,48.83,7.47
Santa maria,CV,75,1564233791,54,16.6,-22.9,84.2,9.17
Margate,ZA,0,1564233792,23,-30.86,30.37,77.99,7.34
Ancud,CL,20,1564233547,100,-41.87,-73.83,33.8,6.93
Saskylakh,RU,89,1564233792,50,71.97,114.09,52.79,8.63
Victoria,SC,40,1564233789,78,-4.62,55.45,80.6,5.82
Grand-lahou,CI,82,1564233792,83,5.24,-5.0,80.15,7.47
Rikitea,PF,66,1564233793,80,-23.12,-134.97,74.75,7.54
Niono,ML,83,1564233793,50,14.25,-5.99,88.43,6.49
Ostrovnoy,RU,98,1564233793,86,68.05,39.51,50.45,14.38
Ushuaia,AR,75,1564233793,80,-54.81,-68.31,35.6,11.41
New norfolk,AU,20,1564233793,70,-42.78,147.06,48.0,8.05
Basco,PH,96,1564233794,69,20.45,121.97,85.91,2.77
Korla,CN,1,1564233794,72,41.76,86.15,75.0,3.0
Punta arenas,CL,0,1564233794,80,-53.16,-70.91,41.0,23.04
Kapaa,US,75,1564233794,78,22.08,-159.32,78.8,12.75
Qaanaaq,GL,87,1564233794,52,77.48,-69.36,43.61,9.6
Cape town,ZA,0,1564233795,77,-33.93,18.42,64.99,9.17
Marawi,SD,93,1564233795,7,18.48,31.82,110.21,9.71
Mount gambier,AU,90,1564233795,100,-37.83,140.78,46.4,9.17
Watsa,CD,82,1564233795,93,3.04,29.53,74.21,4.74
Jurm,AF,0,1564233795,16,36.86,70.83,81.23,11.56
Upernavik,GL,49,1564233796,87,72.79,-56.15,40.91,0.87
Montgomery,US,40,1564233796,73,32.37,-86.3,78.01,4.7
Cayenne,GF,90,1564233796,74,4.94,-52.33,84.2,4.7
Yellowknife,CA,75,1564233521,71,62.45,-114.38,50.0,8.05
Kavieng,PG,89,1564233796,76,-2.57,150.8,83.03,15.1
Ipoti,NG,63,1564233797,67,7.87,5.08,82.31,6.6
Constantine,DZ,0,1564233797,11,36.36,6.61,96.8,13.87
Albany,AU,53,1564233797,100,-35.02,117.88,44.6,4.7
Fairbanks,US,90,1564233632,93,64.84,-147.72,55.4,3.36
Hobart,AU,20,1564233797,70,-42.88,147.33,48.0,8.05
Busselton,AU,35,1564233798,56,-33.64,115.35,50.0,16.64
Jambi,ID,38,1564233798,73,-1.6,103.62,78.89,1.95
Altamirano,MX,90,1564233798,96,16.73,-92.04,57.29,3.94
Mar del plata,AR,18,1564233798,69,-46.43,-67.52,35.15,10.94
Lodwar,KE,51,1564233798,43,3.12,35.6,84.83,3.49
Souillac,MU,75,1564233799,94,-20.52,57.52,72.0,11.41
Sobolevo,RU,24,1564233799,65,54.43,31.9,77.09,8.72
Ribeira grande,PT,75,1564233763,88,38.52,-28.7,75.2,12.75
Vaini,TO,90,1564233800,94,-21.2,-175.2,68.0,11.41
Chuy,UY,27,1564233800,84,-33.69,-53.46,50.45,11.48
Krasnokamensk,RU,98,1564233800,66,50.1,118.04,73.67,12.15
Butaritari,KI,94,1564233800,72,3.07,172.79,85.01,10.56
Port alfred,ZA,0,1564233800,49,-33.59,26.89,70.0,18.14
Avarua,CK,98,1564233801,78,-21.21,-159.78,71.6,5.82
Quelimane,MZ,75,1564233801,65,-17.88,36.89,77.0,13.87
Bluff,NZ,100,1564233801,95,-46.6,168.33,46.99,3.0
Najran,SA,40,1564233801,13,17.54,44.22,102.2,4.7
Shiyan,CN,23,1564233801,52,32.65,110.78,81.0,3.0
Inhambane,MZ,40,1564233802,50,-23.87,35.38,77.0,6.93
Severo-kurilsk,RU,100,1564233802,97,50.68,156.12,48.47,33.8
Verkhoyansk,RU,98,1564233802,55,67.55,133.39,56.75,7.18
Abnub,EG,0,1564233802,37,27.27,31.15,98.6,20.8
Nuuk,GL,90,1564233803,71,64.17,-51.74,50.0,24.16
Vestmannaeyjar,IS,90,1564233803,100,63.44,-20.27,55.4,20.8
Arraial do cabo,BR,0,1564233803,65,-22.97,-42.02,77.0,20.8
Kenai,US,90,1564233803,93,60.55,-151.26,54.0,6.93
Kedrovyy,RU,0,1564233803,72,56.17,91.82,62.6,6.71
Road town,VG,20,1564233520,70,18.42,-64.62,86.0,8.05
Provideniya,RU,46,1564233804,89,64.42,-173.23,44.51,1.61
Piterka,RU,100,1564233804,73,50.68,47.44,68.45,19.44
Karonga,MW,70,1564233804,39,-9.94,33.93,70.07,11.72
Georgetown,SH,72,1564233805,75,-7.93,-14.42,74.39,12.97
Hobyo,SO,66,1564233805,50,5.35,48.53,83.93,28.43
Hermanus,ZA,0,1564233805,81,-34.42,19.24,64.99,3.0
Pevek,RU,100,1564233805,98,69.7,170.27,33.89,12.06
Jamestown,SH,88,1564233805,58,-15.94,-5.72,68.45,3.47
Daverdisse,BE,75,1564233806,93,50.02,5.12,71.01,9.17
Totness,SR,86,1564233806,81,5.88,-56.32,78.35,7.63
Veshenskaya,RU,46,1564233806,56,49.63,41.73,78.71,10.51
Shangrao,CN,100,1564233806,68,28.45,117.97,86.63,1.57
Mayo,CA,75,1564233806,76,63.59,-135.9,53.6,2.24
Luderitz,NA,48,1564233807,59,-26.65,15.16,64.4,9.17
College,US,90,1564233807,93,64.86,-147.8,55.4,3.36
Husavik,IS,40,1564233807,87,66.04,-17.34,55.4,10.29
Coxim,BR,57,1564233807,64,-18.5,-54.75,69.71,4.65
Dauriya,RU,100,1564233807,54,49.93,116.85,74.93,12.12
Makakilo city,US,40,1564233808,88,21.35,-158.09,78.8,6.93
Saint-philippe,RE,90,1564233808,88,-21.36,55.77,73.4,26.4
Bako,ET,80,1564233808,72,5.83,36.63,75.65,3.65
Lompoc,US,90,1564233808,93,34.64,-120.46,60.01,13.78
Vila franca do campo,PT,75,1564233809,88,37.72,-25.43,73.4,9.17
Saint-michel-des-saints,CA,50,1564233777,7,46.68,-73.92,73.99,1.01
Thompson,CA,90,1564233809,93,55.74,-97.86,57.2,3.36
Hithadhoo,MV,3,1564233809,61,-0.6,73.08,83.39,0.2
Saldanha,ZA,0,1564233809,56,-33.01,17.94,69.8,3.36
Ponta delgada,PT,75,1564233810,88,37.73,-25.67,73.4,9.17
Mehamn,NO,100,1564233810,96,71.03,27.85,47.57,13.33
Pandan,PH,100,1564233810,77,11.72,122.09,82.85,10.96
Chokurdakh,RU,98,1564233810,79,70.62,147.9,40.91,7.61
Marabba,SD,9,1564233810,22,12.35,32.18,101.57,10.42
Crixas,BR,0,1564233670,36,-14.55,-49.97,77.81,14.36
Mahebourg,MU,75,1564233811,94,-20.41,57.7,72.0,11.41
Gainesville,US,75,1564233811,88,29.65,-82.33,78.01,4.74
Canandaigua,US,1,1564233811,64,42.88,-77.28,75.99,3.36
Mana,GF,95,1564233811,87,5.67,-53.78,76.37,3.38
Torbay,CA,5,1564233812,60,47.66,-52.73,70.0,14.99
East london,ZA,0,1564233812,44,-33.02,27.91,75.2,8.05
Vila velha,BR,75,1564233812,61,-3.71,-38.6,86.0,17.22
Whitianga,NZ,3,1564233667,90,-36.83,175.7,51.01,1.99
Cidreira,BR,39,1564233813,86,-30.17,-50.22,52.79,10.47
Broken hill,AU,96,1564233813,54,-31.97,141.45,55.4,6.35
West warwick,US,40,1564233813,73,41.71,-71.52,75.99,8.05
Old town,US,1,1564233591,83,38.98,-76.93,82.0,1.5
San patricio,MX,75,1564233813,88,19.22,-104.7,77.0,9.17
Nanortalik,GL,14,1564233814,74,60.14,-45.24,45.23,4.43
Saint pete beach,US,90,1564233570,83,27.73,-82.74,81.0,5.82
Mareeba,AU,40,1564233814,77,-16.99,145.42,69.8,8.05
Kahului,US,1,1564233814,83,20.89,-156.47,77.0,16.11
Pointe michel,DM,75,1564233814,83,15.25,-61.38,84.2,2.24
Petropavlovsk-kamchatskiy,RU,75,1564233815,100,53.05,158.65,53.6,6.71
Bang saphan,TH,37,1564233815,70,11.21,99.51,83.75,7.47
Bambous virieux,MU,75,1564233671,94,-20.34,57.76,72.0,11.41
Pagudpud,PH,75,1564233815,88,18.56,120.79,78.8,4.7
Hamilton,BM,75,1564233815,78,32.3,-64.78,82.4,6.93
Geraldton,AU,40,1564233816,82,-28.77,114.6,55.4,1.12
Corn island,NI,60,1564233816,78,12.17,-83.04,81.77,15.1
Tiksi,RU,55,1564233816,74,71.64,128.87,37.67,4.76
Qarqin,AF,0,1564233816,7,37.41,66.03,107.51,8.21
Barrow,US,1,1564233816,78,39.51,-90.4,75.0,8.05
Annau,TM,75,1564233817,31,37.89,58.52,100.4,4.7
Port hueneme,US,1,1564233561,77,34.15,-119.2,70.0,6.96
Rundu,NA,0,1564233817,8,-17.91,19.77,82.4,8.05
Saint george,BM,75,1564233817,78,32.38,-64.68,82.4,6.93
Dikson,RU,100,1564233817,97,73.51,80.55,33.53,9.24
Moba,CD,44,1564233818,27,-7.04,29.77,83.21,6.11
Yerbogachen,RU,9,1564233818,48,61.28,108.01,78.89,1.99
Ponta do sol,CV,20,1564233818,61,17.2,-25.09,82.4,18.34
Clyde river,CA,90,1564233818,93,70.47,-68.59,39.2,9.17
Hambantota,LK,0,1564233819,66,6.12,81.12,89.6,12.75
Bethel,US,90,1564233819,93,60.79,-161.76,48.2,5.82
Bowral,AU,77,1564233819,93,-34.48,150.42,51.01,5.82
Beloha,MG,0,1564233819,46,-25.17,45.06,73.49,19.37
Ilulissat,GL,75,1564233819,75,69.22,-51.1,46.4,5.82
Bredasdorp,ZA,0,1564233820,68,-34.53,20.04,64.4,6.93
Castro,CL,20,1564233820,100,-42.48,-73.76,33.8,6.93
Puerto escondido,MX,20,1564233820,88,15.86,-97.07,73.4,10.29
Beinamar,TD,89,1564233820,76,8.67,15.38,80.87,8.16
Lagoa,PT,75,1564233820,83,37.14,-8.45,73.0,17.22
Pyapon,MM,100,1564233821,96,16.29,95.68,74.21,4.45
Qaqortoq,GL,75,1564233821,58,60.72,-46.03,55.4,8.05
Tasiilaq,GL,20,1564233613,70,65.61,-37.64,48.2,10.29
Acari,BR,25,1564233821,53,-6.44,-36.64,81.59,20.2
Bonavista,CA,0,1564233821,84,48.65,-53.11,61.0,1.99
Chumikan,RU,100,1564233822,97,54.72,135.31,46.31,0.69
Sitka,US,78,1564233822,75,37.17,-99.65,66.99,1.01
Kabo,CF,46,1564233822,71,7.69,18.62,86.09,1.32
Kysyl-syr,RU,3,1564233822,59,63.9,122.77,69.53,7.7
San carlos de bariloche,AR,0,1564233823,79,-41.13,-71.31,23.0,5.82
Mecca,SA,74,1564233672,25,21.43,39.83,101.21,16.78
Matamoros,MX,5,1564233823,56,25.53,-103.23,73.99,2.04
Isangel,VU,20,1564233823,93,-19.55,169.27,64.4,16.62
Ahipara,NZ,44,1564233823,100,-35.17,173.16,53.01,13.58
Alexandria,EG,40,1564233823,58,31.2,29.89,86.0,13.87
Ruteng,ID,51,1564233824,86,-8.61,120.46,68.27,4.16
Fort nelson,CA,75,1564233824,93,58.81,-122.69,57.2,4.7
Maningrida,AU,61,1564233824,82,-12.05,134.23,72.95,10.2
Lorengau,PG,68,1564233824,83,-2.02,147.27,79.43,9.13
Pundaguitan,PH,99,1564233825,77,6.37,126.17,82.85,6.35
Port elizabeth,ZA,0,1564233713,17,-33.92,25.57,84.2,2.24
Delano,US,1,1564233825,40,35.77,-119.25,78.8,6.82
Tecoanapa,MX,40,1564233825,83,16.99,-99.26,80.6,4.7
Quincy,US,1,1564233825,88,30.59,-84.58,78.01,8.05
Tuatapere,NZ,100,1564233826,95,-46.13,167.69,46.99,3.0
Ugoofaaru,MV,100,1564233826,71,5.67,73.0,82.85,7.67
Singaparna,ID,100,1564233826,92,-7.35,108.11,68.27,3.87
Caravelas,BR,49,1564233826,79,-17.73,-39.27,73.85,11.61
Ixtapa,MX,90,1564233826,100,20.71,-105.21,75.2,9.17
Baykit,RU,54,1564233827,70,61.68,96.39,62.33,4.68
Whitehorse,CA,40,1564233725,87,60.72,-135.06,46.99,3.36
Quartucciu,IT,0,1564233827,48,39.25,9.18,89.01,14.99
Siraha,NP,92,1564233827,67,26.66,86.21,88.97,17.47
Leningradskiy,RU,100,1564233827,97,69.38,178.42,37.49,1.03
Longyearbyen,SJ,0,1564233828,54,78.22,15.64,53.6,4.7
Longhua,CN,28,1564233828,76,29.21,106.21,85.37,5.75
Cairns,AU,40,1564233828,77,-16.92,145.77,69.8,8.05
Itarema,BR,42,1564233828,54,-2.92,-39.92,83.93,11.92
Lebu,CL,100,1564233829,83,-37.62,-73.65,50.81,16.82
Coihaique,CL,20,1564233829,98,-45.58,-72.07,35.6,4.7
Evensk,RU,53,1564233791,96,61.92,159.24,42.17,3.18
Rawson,AR,0,1564233829,64,-43.3,-65.11,38.75,9.33
Norman wells,CA,75,1564233752,70,65.28,-126.83,44.6,3.36
Harer,ET,100,1564233830,73,9.31,42.13,66.11,8.88
Poum,NC,0,1564233830,72,-20.23,164.02,70.79,7.85
Semnan,IR,0,1564233830,8,35.58,53.39,100.4,9.26
Narodychi,UA,33,1564233830,51,51.2,29.09,78.17,5.03
Guerrero negro,MX,80,1564233831,82,27.97,-114.04,69.89,11.54
Erdaojiang,CN,0,1564233831,88,41.78,126.03,70.61,2.42
Cockburn town,BS,64,1564233831,81,24.03,-74.52,83.39,15.57
Nelson bay,AU,75,1564233831,100,-32.72,152.14,57.99,7.45
Tautira,PF,20,1564233832,83,-17.73,-149.15,73.4,4.7
Ilhabela,BR,57,1564233832,72,-23.78,-45.36,72.77,6.42
Otanche,CO,81,1564233832,94,5.66,-74.18,68.27,1.79
El dorado,US,1,1564233832,72,37.82,-96.86,73.99,9.17
Canete,CL,100,1564233832,78,-37.8,-73.4,46.31,4.07
Presidencia roque saenz pena,AR,20,1564233833,100,-26.79,-60.44,39.2,1.12
Faanui,PF,14,1564233833,79,-16.48,-151.75,78.71,17.85
Sao filipe,CV,87,1564233833,77,14.9,-24.5,74.39,8.86
Kaitangata,NZ,100,1564233833,78,-46.28,169.85,48.0,1.99
Malinovskiy,RU,8,1564233834,49,54.15,34.53,79.07,5.14
Urgut,UZ,0,1564233834,19,39.41,67.25,91.4,18.34
Pangnirtung,CA,100,1564233668,75,66.15,-65.72,45.41,2.84
Oistins,BB,75,1564233592,66,13.07,-59.53,86.0,20.8
Oranjemund,NA,0,1564233835,75,-28.55,16.43,59.09,4.79
Kodiak,US,1,1564233835,68,39.95,-94.76,73.0,6.93
Inirida,CO,100,1564233835,98,3.87,-67.92,71.87,2.35
Kez,RU,100,1564233836,80,57.9,53.72,70.43,1.45
The valley,AI,40,1564233836,70,18.22,-63.06,87.8,11.41
Barkhan,PK,34,1564233836,42,29.9,69.52,89.51,19.44
Mercedes,AR,12,1564233836,91,-29.18,-58.08,49.01,2.53
Blairmore,CA,20,1564233837,93,49.61,-114.44,66.0,3.36
Santa rosa del sur,CO,100,1564233837,96,7.96,-74.05,71.51,1.95
Glarus,CH,20,1564233837,47,47.04,9.07,82.99,2.24
Fare,PF,1,1564233789,79,-16.7,-151.02,78.35,18.75
Bang lamung,TH,20,1564233837,62,12.97,100.91,91.99,4.7
Talnakh,RU,0,1564233838,66,69.49,88.39,53.6,20.13
Olga,RU,0,1564233838,87,43.74,135.29,68.09,3.2
Wladyslawowo,PL,20,1564233838,73,54.79,18.4,75.99,16.11
Mae sot,TH,100,1564233838,99,16.72,98.57,68.81,1.81
Necochea,AR,0,1564233628,75,-38.55,-58.74,51.01,5.99
Mount isa,AU,77,1564233839,54,-20.73,139.49,57.2,10.16
Matagami,CA,1,1564233839,72,49.76,-77.63,68.0,12.75
Beyneu,KZ,11,1564233839,20,45.32,55.19,94.55,14.65
Ushirombo,TZ,22,1564233840,21,-3.47,31.9,84.47,7.63
Tura,RU,79,1564233678,63,64.27,100.22,67.01,5.41
Abu kamal,SY,0,1564233840,7,34.45,40.92,105.53,17.22
Arona,ES,40,1564233580,68,28.1,-16.68,80.6,18.34
Cabedelo,BR,75,1564233840,100,-6.97,-34.84,75.2,5.82
Hervey bay,AU,22,1564233840,100,-25.3,152.85,62.01,5.82
Kavaratti,IN,98,1564233680,78,10.57,72.64,82.31,13.6
Iqaluit,CA,90,1564233841,87,63.75,-68.52,50.0,21.92
Puerto colombia,CO,20,1564233841,78,10.99,-74.96,82.4,2.24
Lahaina,US,1,1564233841,83,20.87,-156.68,77.0,16.11
Saint-denis,RE,75,1564233841,78,-20.87,55.47,73.4,21.92
Hilo,US,20,1564233842,83,19.71,-155.08,71.6,4.7
Belmonte,BR,22,1564233842,86,-26.84,-53.58,45.77,1.7
Piacabucu,BR,5,1564233842,75,-10.41,-36.43,77.81,11.81
Aswan,EG,0,1564233842,17,24.09,32.9,102.2,14.99
Le port,RE,75,1564233843,78,-20.94,55.29,73.4,21.92
Zhuhai,CN,0,1564233843,73,40.71,112.04,75.2,4.47
Orlik,RU,100,1564233843,87,52.51,99.83,45.05,5.5
Aleksandrovsk,RU,100,1564233843,71,59.16,57.56,64.99,1.01
Gilgit,PK,64,1564233844,41,35.92,74.31,64.67,5.68
Nyzhni sirohozy,UA,0,1564233844,31,46.85,34.38,86.45,8.14
Livingston,US,40,1564233837,83,30.71,-94.93,78.01,4.7
Dalianwan,CN,75,1564233844,83,39.03,121.69,80.6,13.42
Hovd,MN,76,1564233844,44,48.01,91.64,63.23,7.07
Puerto madero,MX,40,1564233845,100,14.72,-92.42,73.4,3.71
Paamiut,GL,100,1564233845,97,61.99,-49.67,40.01,29.57
Baoning,CN,20,1564233845,79,25.34,110.03,84.2,4.47
Kieta,PG,97,1564233845,79,-6.22,155.63,80.87,8.88
Eufaula,US,1,1564233678,88,31.89,-85.15,78.01,4.7
Maniitsoq,GL,100,1564233846,96,65.42,-52.9,44.15,13.11
Biak,ID,91,1564233554,96,-0.91,122.88,61.25,6.33
Karang tengah,ID,62,1564233846,68,-7.58,111.86,76.73,3.29
Waipawa,NZ,13,1564233846,92,-39.94,176.59,46.99,1.12
Itoman,JP,20,1564233847,70,26.12,127.67,86.0,6.93
Ati,TD,83,1564233847,43,13.21,18.34,92.21,9.73
Henties bay,NA,0,1564233847,90,-22.12,14.28,57.0,5.01
Turan,RU,100,1564233847,88,52.15,93.92,56.21,2.08
Cabo san lucas,MX,5,1564233659,74,22.89,-109.91,80.6,5.53
Oskaloosa,US,1,1564233848,73,39.22,-95.31,73.99,3.36
Chimbote,PE,100,1564233848,87,-9.08,-78.59,61.07,10.67
Narsaq,GL,75,1564233846,58,60.91,-46.05,55.4,8.05
Huangnihe,CN,2,1564233848,88,43.56,128.02,72.95,5.39
Bocas del toro,PA,62,1564233849,41,9.33,-82.25,62.01,3.0
Vostok,RU,1,1564233849,95,46.45,135.83,62.69,2.51
Panjab,AF,23,1564233849,14,34.38,67.02,73.49,7.99
Noumea,NC,20,1564233849,82,-22.28,166.46,60.8,2.24
Sibolga,ID,30,1564233849,67,1.74,98.78,84.47,4.76
Burns lake,CA,66,1564233850,98,54.23,-125.76,42.89,3.06
Tiznit,MA,0,1564233850,83,29.7,-9.73,68.09,12.5
Ternate,ID,100,1564233850,83,0.8,127.4,80.15,17.31
Linxia,CN,39,1564233850,69,35.6,103.21,67.19,0.81
Batemans bay,AU,100,1564233851,99,-35.71,150.18,51.01,1.99
La primavera,CO,99,1564233851,92,5.49,-70.41,74.39,3.85
Muros,ES,75,1564233851,77,42.77,-9.06,73.0,9.17
Zheleznodorozhnyy,RU,0,1564233851,45,55.75,38.0,87.01,13.42
Nacala,MZ,52,1564233851,42,-14.56,40.69,83.93,9.69
Cherskiy,RU,15,1564233852,80,68.75,161.3,38.21,9.66
Santiago del estero,AR,0,1564233852,64,-27.8,-64.26,49.73,3.67
Samarai,PG,4,1564233852,89,-10.62,150.67,69.71,6.6
Pula,HR,20,1564233852,70,44.87,13.85,86.0,6.93
Vardo,NO,75,1564233853,71,70.37,31.11,55.4,16.11
Zaranj,AF,0,1564233853,10,30.95,61.86,109.4,18.34
Polewali,ID,17,1564233853,75,-4.03,119.8,80.51,5.35
Weyburn,CA,0,1564233633,77,49.67,-103.85,61.0,1.01
The pas,CA,1,1564233853,88,53.82,-101.24,62.6,9.17
Ovsyanka,RU,56,1564233853,93,53.58,126.91,57.29,3.33
West bay,KY,20,1564233612,84,19.37,-81.42,86.0,12.75
Salvador,BR,40,1564233854,74,-12.98,-38.48,78.8,13.87
Zapolyarnyy,RU,40,1564233854,76,69.43,30.82,55.4,19.46
Saint-pierre,PM,0,1564233855,49,46.77,-56.17,71.6,12.75
Asuncion,PY,90,1564233765,81,-25.3,-57.63,50.0,6.93
Nipawin,CA,1,1564233855,82,53.36,-104.02,64.4,8.05
San andres,CO,40,1564233855,88,8.22,-76.58,75.2,1.16
Plastun,RU,0,1564233855,95,44.76,136.29,62.69,6.02
Tomatlan,MX,100,1564233855,85,19.93,-105.25,77.45,6.69
Tuktoyaktuk,CA,0,1564233856,80,69.44,-133.03,43.61,16.67
Angoram,PG,76,1564233856,97,-4.06,144.07,74.57,2.91
Monforte de lemos,ES,100,1564233856,62,42.52,-7.51,70.0,8.01
Mikkeli,FI,0,1564233856,38,61.69,27.27,87.8,3.36
Tongren,CN,48,1564233856,82,27.72,109.18,80.33,2.15
Morehead,PG,81,1564233857,89,-8.71,141.64,69.35,3.98
Norden,DE,0,1564233857,33,53.59,7.21,88.0,17.22
Kidal,ML,20,1564233857,25,18.44,1.41,101.21,9.73
Bima,ID,8,1564233857,95,-8.45,118.73,65.39,2.86
Havre,US,1,1564233858,67,48.55,-109.68,64.99,10.76
Whyalla,AU,100,1564233858,93,-33.04,137.58,48.2,3.36
Nishihara,JP,40,1564233858,78,35.74,139.53,82.99,13.87
Khandbari,NP,100,1564233858,97,27.38,87.21,62.69,3.15
Karratha,AU,10,1564233858,38,-20.74,116.85,74.39,11.68
Saint-louis,SN,40,1564233859,66,16.03,-16.5,87.8,6.93
Areka,ET,73,1564233859,65,7.07,37.71,77.09,3.31
Bria,CF,26,1564233859,84,6.54,21.99,78.89,4.99
Khatanga,RU,65,1564233859,49,71.98,102.47,52.43,13.8
Doha,QA,0,1564233785,15,25.29,51.53,109.4,13.87
Tiarei,PF,20,1564233860,83,-17.53,-149.33,73.4,4.7
Ayagoz,KZ,22,1564233860,42,47.96,80.43,69.17,13.62
Mnogovershinnyy,RU,97,1564233860,96,53.94,139.92,45.95,3.69
Esperance,AU,90,1564233860,87,-33.86,121.89,53.6,6.93
Puerto leguizamo,CO,99,1564233861,99,-0.19,-74.78,70.43,1.12
Carnarvon,AU,33,1564233861,87,-24.87,113.63,57.2,12.97
General roca,AR,0,1564233861,63,-39.03,-67.58,35.6,2.24
Marystown,CA,0,1564233861,60,47.17,-55.16,66.11,4.12
Shelburne,CA,40,1564233831,73,44.08,-80.2,75.99,6.93
Yulara,AU,0,1564233862,20,-25.24,130.99,57.2,6.93
Tanabe,JP,100,1564233862,87,33.73,135.39,79.25,18.5
Almaznyy,RU,40,1564233862,54,48.03,40.04,78.8,8.95
Sabha,LY,0,1564233862,10,27.03,14.43,100.13,3.33
Taiyuan,CN,0,1564233863,58,37.86,112.56,84.2,11.18
Katsuura,JP,75,1564233863,94,33.93,134.5,79.0,4.7
Trapani,IT,40,1564233863,48,38.02,12.54,91.99,10.29
Pochutla,MX,20,1564233863,78,15.74,-96.47,78.01,5.99
Dukat,RU,29,1564233863,45,62.55,155.55,60.89,7.2
Hirara,JP,0,1564233864,76,24.8,125.28,83.75,10.27
Moron,MN,18,1564233864,59,47.38,110.32,63.77,12.5
Tessalit,ML,0,1564233864,19,20.2,1.01,104.81,17.09
Mizdah,LY,0,1564233864,13,31.45,12.98,99.23,6.55
Sandeid,NO,0,1564233864,60,59.54,5.86,81.0,10.29
La sarre,CA,62,1564233834,80,48.8,-79.2,65.57,12.93
Sistranda,NO,20,1564233865,61,63.73,8.83,80.6,11.41
Daru,PG,58,1564233865,85,-9.07,143.21,72.23,7.54
Masterton,NZ,9,1564233865,86,-40.95,175.66,55.0,2.91
Bubaque,GW,100,1564233735,83,11.28,-15.83,80.15,10.11
Golyshmanovo,RU,86,1564233866,58,56.4,68.37,75.29,10.8
Porto walter,BR,11,1564233866,94,-8.27,-72.74,64.49,3.4
Salalah,OM,90,1564233866,78,17.01,54.1,80.6,8.05
Sao joao da barra,BR,20,1564233866,61,-21.64,-41.05,77.0,16.11
Pascagoula,US,1,1564233630,78,30.37,-88.56,81.0,6.93
Soyo,AO,100,1564233867,82,-6.13,12.37,71.51,7.83
Kropotkin,RU,30,1564233867,60,45.43,40.58,78.71,15.28
Sunnyside,US,1,1564233608,63,46.32,-120.01,70.0,3.36
Barra,BR,0,1564233732,50,-11.09,-43.14,74.39,6.06
Kitzingen,DE,75,1564233867,61,49.73,10.16,82.0,10.29
San vicente,PH,100,1564233868,85,14.11,122.87,77.81,4.59
Khipro,PK,59,1564233868,39,25.83,69.38,103.01,25.68
Develi,TR,0,1564233868,19,38.39,35.49,86.0,4.7
Perth,AU,0,1564233832,87,-31.95,115.86,59.0,8.05
Taltal,CL,0,1564233868,64,-25.41,-70.49,49.55,1.03
Meulaboh,ID,27,1564233869,68,4.14,96.13,83.75,9.35
Skjervoy,NO,83,1564233869,94,70.03,20.97,51.17,1.39
Iralaya,HN,75,1564233869,83,15.0,-83.23,78.8,4.7
Belyy yar,RU,99,1564233869,82,53.6,91.39,66.2,2.24
Bien hoa,VN,75,1564233795,100,10.95,106.82,73.4,4.7
Abilene,US,1,1564233826,56,32.45,-99.73,73.0,9.17
Bandarbeyla,SO,75,1564233870,30,9.49,50.81,93.11,29.39
Makat,KZ,3,1564233870,27,47.65,53.35,88.25,20.22
Solnechnyy,RU,97,1564233870,95,50.72,136.64,57.47,2.17
Nikolskoye,RU,0,1564233870,45,59.7,30.79,84.2,11.18
Tuy hoa,VN,87,1564233701,92,13.08,109.3,73.85,2.62
Kainantu,PG,73,1564233871,98,-6.29,145.87,54.23,1.77
Umm lajj,SA,0,1564233871,70,25.02,37.27,85.73,20.27
Saint-joseph,RE,90,1564233871,88,-21.37,55.62,73.4,26.4
Hazorasp,UZ,0,1564233871,44,41.32,61.08,93.2,6.93
Comodoro rivadavia,AR,0,1564233872,65,-45.87,-67.48,44.6,6.53
Grindavik,IS,90,1564233872,100,63.84,-22.43,60.8,6.93
Kampene,CD,68,1564233872,13,-3.59,26.67,96.53,4.07
Yarmouth,CA,75,1564233580,77,43.84,-66.12,68.0,2.24
Keti bandar,PK,96,1564233872,80,24.14,67.45,84.47,25.57
Esso,RU,62,1564233873,84,55.93,158.7,45.95,3.06
Thinadhoo,MV,48,1564233873,64,0.53,72.93,82.85,1.12
Huarmey,PE,100,1564233873,85,-10.07,-78.15,60.71,12.66
Santa cruz,CR,75,1564233873,78,10.26,-85.58,75.2,2.24
Dingle,IE,75,1564233874,63,52.14,-10.27,66.2,9.17
Filadelfia,PY,0,1564233874,78,-22.35,-60.04,49.91,4.47
Milton,NZ,100,1564233874,78,-46.12,169.96,48.0,1.99
Padang,ID,46,1564233874,74,-0.92,100.36,83.03,5.61
Islamkot,PK,55,1564233874,49,24.7,70.18,95.27,26.75
Palana,RU,42,1564233875,74,59.08,159.95,49.37,13.2
Xining,CN,3,1564233875,83,36.62,101.77,58.01,4.81
Warrington,US,1,1564233875,65,40.25,-75.13,80.6,1.12
Les cayes,HT,26,1564233586,81,18.19,-73.75,82.67,15.93
Neiafu,TO,90,1564233875,88,-18.65,-173.98,68.0,11.41
Cascais,PT,75,1564233876,73,38.7,-9.42,73.4,12.75
Madimba,TZ,75,1564233876,48,-10.4,40.33,84.2,24.16
Nome,US,75,1564233876,83,30.04,-94.42,80.01,6.93
Ampanihy,MG,15,1564233876,40,-24.69,44.75,74.75,17.4
Calvinia,ZA,0,1564233881,12,-31.47,19.78,78.8,17.22
Cururupu,BR,7,1564233882,76,-1.82,-44.87,80.87,7.16
Qasigiannguit,GL,75,1564233882,75,68.82,-51.19,46.4,5.82
Coahuayana,MX,100,1564233882,96,18.62,-100.35,67.19,2.21
Gazanjyk,TM,89,1564233882,30,39.24,55.52,97.97,7.61
Hutchinson,US,9,1564233630,64,38.06,-97.93,73.99,12.75
Charters towers,AU,79,1564233883,68,-20.07,146.27,60.89,4.18
Luwingu,ZM,31,1564233883,25,-10.26,29.92,79.61,9.13
Haines junction,CA,7,1564233883,89,60.75,-137.51,37.85,3.87
Trelew,AR,0,1564233883,64,-43.25,-65.31,38.75,9.33
Alyangula,AU,71,1564233883,93,-13.85,136.42,66.2,11.14
Abong mbang,CM,100,1564233884,95,3.98,13.18,69.89,2.44
Lakes entrance,AU,89,1564233884,94,-37.88,147.99,46.99,6.71
Mayumba,GA,100,1564233884,90,-3.44,10.65,71.33,6.35
Dengzhou,CN,0,1564233884,67,32.69,112.08,89.33,5.48
Egvekinot,RU,96,1564233884,91,66.32,-179.17,42.53,2.93
Labytnangi,RU,98,1564233885,69,66.66,66.39,52.43,4.56
Kruisfontein,ZA,0,1564233885,18,-34.0,24.73,83.03,11.56
Mandalgovi,MN,48,1564233885,32,45.76,106.27,70.79,16.31
Deputatskiy,RU,4,1564233885,65,69.3,139.9,38.93,5.35
Lewiston,US,1,1564233886,37,46.42,-117.02,69.8,12.46
Vostochnyy,RU,0,1564233886,51,55.82,37.87,87.01,11.18
Honningsvag,NO,100,1564233886,96,70.98,25.97,47.75,12.97
Taoudenni,ML,5,1564233666,7,22.68,-3.98,111.83,4.54
Bilma,NE,1,1564233886,13,18.69,12.92,103.19,2.71
Muroto,JP,55,1564233887,93,33.37,134.14,73.31,0.92
Aksarka,RU,100,1564233887,87,66.56,67.8,48.11,16.98
Strzelce krajenskie,PL,16,1564233887,50,52.88,15.53,77.27,13.4
Indramayu,ID,47,1564233887,87,-4.05,103.78,69.53,2.64
Touros,BR,75,1564233888,94,-5.2,-35.46,75.2,8.05
Tevriz,RU,100,1564233888,88,57.51,72.4,64.31,3.04
Prado,BR,17,1564233888,76,-17.34,-39.22,74.39,9.13
Naze,JP,0,1564233888,88,28.37,129.48,82.4,3.36
Hofn,IS,75,1564233889,87,64.25,-15.21,57.2,16.11
Ubinskoye,RU,70,1564233889,59,55.31,79.68,73.31,6.11
Mahina,PF,20,1564233889,83,-17.51,-149.49,73.4,4.7
Namatanai,PG,86,1564233889,85,-3.66,152.44,78.17,20.0
Quatre cocos,MU,75,1564233889,94,-20.21,57.76,72.0,11.41
Viedma,AR,0,1564233890,73,-40.81,-62.99,42.17,6.78
Gasa,BT,96,1564233890,91,27.91,89.73,44.69,7.67
Manaure,CO,20,1564233890,66,11.78,-72.45,86.0,16.11
El viejo,NI,40,1564233890,74,12.66,-87.17,78.8,16.31
Miranda,BR,47,1564233890,68,-20.24,-56.38,60.17,5.39
Okha,RU,100,1564233891,94,53.59,142.95,50.45,4.36
Pacific grove,US,90,1564233891,87,36.62,-121.92,59.0,8.79
Anshun,CN,87,1564233714,96,26.25,105.93,69.17,5.93
Mwene-ditu,CD,84,1564233891,10,-7.01,23.45,96.17,3.94
Yarim,YE,100,1564233891,60,14.3,44.38,74.21,5.73
Abay,KZ,9,1564233892,38,49.63,72.87,73.4,4.47
Chapais,CA,1,1564233892,68,49.78,-74.86,69.8,11.41
North bend,US,90,1564233892,93,43.41,-124.22,64.0,6.93
Roma,AU,2,1564233668,52,-26.57,148.79,55.85,10.02
Gunjur,GM,40,1564233892,66,13.18,-16.76,89.6,8.05
Harper,LR,100,1564233893,85,4.38,-7.71,77.99,16.13
New pitsligo,GB,35,1564233893,77,57.59,-2.2,72.0,10.29
Nyurba,RU,13,1564233893,53,63.29,118.35,73.31,3.51
Rehoboth,NA,0,1564233893,7,-23.31,17.08,78.17,9.44
Corrales,PE,0,1564233894,36,-15.47,-71.5,35.51,10.2
Moyo,UG,74,1564233894,52,3.66,31.72,89.15,0.96
Smithers,CA,90,1564233894,100,54.78,-127.17,53.6,2.24
Marquette,US,40,1564233839,78,46.54,-87.4,73.99,9.17
Raton,US,1,1564233894,82,36.9,-104.44,64.4,3.56
Havelock,US,1,1564233870,65,34.88,-76.9,79.0,13.87
Kaduna,NG,100,1564233845,83,10.52,7.44,76.55,5.44
Kyzyl-suu,KG,0,1564233895,55,42.34,78.0,69.71,8.16
Khilok,RU,100,1564233895,94,51.36,110.46,60.53,5.28
Bonthe,SL,98,1564233896,86,7.53,-12.5,78.17,15.1
Loa janan,ID,18,1564233896,86,-0.58,117.09,76.01,3.91
Maicao,CO,88,1564233612,75,11.38,-72.24,80.51,16.46
Punta alta,AR,75,1564233896,81,-27.46,-55.82,50.0,6.93
Henderson,US,1,1564233881,39,36.04,-114.98,86.0,4.7
Havre-saint-pierre,CA,1,1564233837,72,50.23,-63.6,66.2,5.82
Sibu,MY,75,1564233897,94,2.29,111.83,78.01,2.24
Chitrakonda,IN,100,1564233897,98,18.12,82.08,69.35,7.14
Brae,GB,0,1564233850,77,60.4,-1.35,66.2,12.75
Klaksvik,FO,98,1564233897,77,62.23,-6.59,66.2,10.29
Kilindoni,TZ,75,1564233897,67,-7.91,39.67,75.83,19.89
Golub-dobrzyn,PL,36,1564233898,60,53.11,19.05,73.99,5.01
Houma,US,40,1564233898,83,29.6,-90.72,82.99,3.04
Nola,CF,62,1564233898,76,3.52,16.05,79.79,5.55
Ewa beach,US,40,1564233899,65,21.32,-158.01,78.8,8.05
Nhulunbuy,AU,40,1564233900,88,-12.18,136.78,71.6,8.05
Traverse city,US,90,1564233752,78,44.76,-85.62,75.99,4.7
Moerai,PF,18,1564233901,80,-22.43,-151.33,69.89,16.35
Ca mau,VN,88,1564233892,83,9.18,105.15,79.79,4.59
Murgab,TM,0,1564233904,13,37.5,61.97,104.0,11.41
Nagato,JP,20,1564233906,94,34.35,131.14,81.0,4.7
Rocha,UY,44,1564233907,92,-34.48,-54.34,48.11,11.21
Loukhi,RU,17,1564233907,56,66.08,33.04,67.73,5.03
Russell,NZ,18,1564233787,88,-35.26,174.12,55.99,5.01
Agadez,NE,1,1564233909,26,16.97,7.99,102.2,6.93
Burnie,AU,61,1564233909,94,-41.05,145.91,44.01,1.99
Grand island,US,1,1564233746,68,40.92,-98.34,71.01,5.82
Gobabis,NA,0,1564233910,9,-22.45,18.97,80.6,8.05
Merrill,US,1,1564233910,81,42.03,-121.6,57.99,2.86
Purmerend,NL,20,1564233910,65,52.5,4.96,90.0,13.87
Northam,AU,90,1564233910,82,-31.65,116.67,57.2,6.04
Bajil,YE,100,1564233910,48,15.06,43.29,92.21,11.45
Port hardy,CA,90,1564233911,93,50.7,-127.42,57.2,5.82
Lazaro cardenas,MX,22,1564233911,36,28.39,-105.62,71.01,1.99
Pimentel,PE,90,1564233911,29,-6.84,-79.94,66.2,5.82
Winslow,US,1,1564233911,60,35.02,-110.7,69.8,7.94
Tshikapa,CD,79,1564233912,8,-6.42,20.79,97.25,5.5
Tateyama,JP,75,1564233912,94,36.66,137.31,75.99,4.7
Karpogory,RU,66,1564233912,53,64.0,44.44,60.89,10.78
Sao francisco,BR,90,1564233912,93,-25.65,-53.85,48.2,8.05
Coruripe,BR,9,1564233912,85,-10.12,-36.18,75.11,10.47
Turukhansk,RU,76,1564233913,42,65.8,87.96,66.11,6.76
Bossangoa,CF,40,1564233913,80,6.5,17.45,80.51,3.29
Mitsamiouli,KM,20,1564233913,65,-11.38,43.28,82.4,21.92
Kununurra,AU,100,1564233913,56,-15.77,128.74,69.8,5.82
Thames,NZ,3,1564233913,93,-37.14,175.55,52.0,2.24
Benguela,AO,60,1564233914,80,-12.58,13.4,70.07,6.6
Constitucion,MX,20,1564233914,62,23.99,-104.67,62.01,3.36
Sretensk,RU,35,1564233914,56,52.24,117.7,68.63,4.59
Thessalon,CA,90,1564233914,94,46.26,-83.55,71.6,8.05
Araguaina,BR,12,1564233844,35,-7.19,-48.21,82.49,12.08
Lander,US,1,1564233915,35,42.83,-108.73,71.01,10.29
Gumla,IN,100,1564233915,81,23.04,84.54,79.79,3.51
Bouna,CI,95,1564233915,73,9.27,-3.0,81.23,7.27
Alice springs,AU,0,1564233915,27,-23.7,133.88,51.8,9.17
Los llanos de aridane,ES,40,1564233915,61,28.66,-17.92,78.8,16.11
Hay river,CA,75,1564233916,87,60.82,-115.79,53.6,4.7
Cabatuan,PH,98,1564233916,86,16.95,121.67,75.47,2.15
Olinda,BR,1,1564233916,51,-22.82,-43.41,82.4,4.7
Newberry,US,40,1564233916,94,46.35,-85.51,69.8,12.75
Paramirim,BR,6,1564233852,58,-13.44,-42.24,68.09,15.05
Dunedin,NZ,100,1564233917,89,-45.87,170.5,46.99,1.99
Cabiraoan,PH,68,1564233917,69,18.32,122.09,83.21,2.13
Komsomolskiy,RU,99,1564233917,76,67.55,63.78,48.83,14.16
San cristobal,EC,98,1564233917,88,-1.02,-79.44,70.43,4.34
Porto novo,CV,20,1564233917,61,17.02,-25.06,82.4,18.34
Trat,TH,92,1564233918,71,12.25,102.51,84.99,5.73
Puerto del rosario,ES,0,1564233918,65,28.5,-13.86,80.6,20.8
Pemzashen,AM,20,1564233918,26,40.59,43.94,91.4,11.41
Seydi,TM,0,1564233918,11,39.48,62.91,106.61,15.46
Flinders,AU,98,1564233919,93,-34.58,150.85,54.0,5.82
Aripuana,BR,1,1564233919,55,-9.17,-60.63,72.77,5.46
Marica,BR,0,1564233919,83,-22.92,-42.82,82.4,6.93
Teguldet,RU,44,1564233919,47,57.31,88.17,69.53,3.62
Mamakan,RU,0,1564233919,47,57.82,114.02,73.31,1.1
Ambulu,ID,0,1564233920,85,-8.35,113.61,74.75,19.44
Vigrestad,NO,40,1564233920,64,58.57,5.7,82.0,10.29
Muisne,EC,75,1564233920,94,0.61,-80.02,75.2,6.93
Biella,IT,75,1564233920,68,45.57,8.05,82.99,4.7
Hargeysa,SO,75,1564233920,48,9.56,44.06,82.4,8.05
Aden,YE,89,1564233921,46,12.79,45.03,91.13,7.29
Terrace,CA,90,1564233921,100,54.52,-128.61,55.4,11.41
Virginia beach,US,20,1564233644,74,36.85,-75.98,80.6,4.7
Halifax,CA,20,1564233693,60,44.65,-63.58,75.99,2.24
Lowestoft,GB,75,1564233921,93,52.48,1.75,69.01,12.75
Andenes,NO,0,1564233922,87,69.31,16.12,63.0,13.87
Kutum,SD,59,1564233922,14,14.2,24.66,92.39,9.28
Broome,AU,28,1564233922,100,-17.97,122.23,68.0,4.7
La palma del condado,ES,75,1564233922,44,37.38,-6.55,82.0,12.75
Ust-omchug,RU,46,1564233922,57,61.13,149.63,52.97,6.67
Ninghai,CN,0,1564233923,83,29.29,121.42,82.4,2.24
Yongan,CN,48,1564233923,60,39.7,113.69,77.63,10.47
Missoula,US,1,1564233637,66,46.87,-114.0,59.0,2.17
Loudi,CN,78,1564233923,78,27.73,112.0,82.13,3.09
Yining,CN,100,1564233923,77,29.04,114.56,84.83,3.51
Baoding,CN,13,1564233924,50,38.86,115.49,84.47,1.61
Tuensang,IN,100,1564233924,94,26.24,94.81,77.99,0.65
Fomboni,KM,83,1564233924,77,-12.28,43.74,76.01,16.96
Severnoye,RU,93,1564233924,57,54.09,52.54,75.11,7.58
Haimen,CN,98,1564233925,79,31.87,121.18,86.0,1.01
Romitan,UZ,0,1564233925,23,39.93,64.38,98.6,11.41
Faro,PT,75,1564233752,83,37.02,-7.94,73.0,17.22
Belaya gora,RU,34,1564233925,54,68.54,146.19,46.67,8.34
Pemberton,CA,90,1564233925,106,50.32,-122.8,50.0,3.36
Half moon bay,US,90,1564233925,93,37.46,-122.43,60.01,9.17
Ilave,PE,0,1564233926,43,-16.09,-69.64,34.25,0.69
Saint-augustin,CA,1,1564233926,65,45.63,-73.98,77.0,5.82
